[
  {
    "city": "Kyiv", 
    "lat": "50.4500", 
    "lng": "30.5233", 
    "country": "Ukraine", 
    "iso2": "UA", 
    "admin_name": "Kyiv, Misto", 
    "capital": "primary", 
    "population": "2963199", 
    "population_proper": "2962180"
  }, 
  {
    "city": "Kharkiv", 
    "lat": "49.9925", 
    "lng": "36.2311", 
    "country": "Ukraine", 
    "iso2": "UA", 
    "admin_name": "Kharkivska Oblast", 
    "capital": "admin", 
    "population": "1446107", 
    "population_proper": "1433886"
  }, 
  {
    "city": "Odesa", 
    "lat": "46.4775", 
    "lng": "30.7326", 
    "country": "Ukraine", 
    "iso2": "UA", 
    "admin_name": "Odeska Oblast", 
    "capital": "admin", 
    "population": "1017699", 
    "population_proper": "1015826"
  }, 
  {
    "city": "Dnipro", 
    "lat": "48.4675", 
    "lng": "35.0400", 
    "country": "Ukraine", 
    "iso2": "UA", 
    "admin_name": "Dnipropetrovska Oblast", 
    "capital": "admin", 
    "population": "980948", 
    "population_proper": "980948"
  }, 
  {
    "city": "Donetsk", 
    "lat": "48.0028", 
    "lng": "37.8053", 
    "country": "Ukraine", 
    "iso2": "UA", 
    "admin_name": "Donetska Oblast", 
    "capital": "admin", 
    "population": "929063", 
    "population_proper": "929063"
  }, 
  {
    "city": "Zaporizhzhia", 
    "lat": "47.8500", 
    "lng": "35.1175", 
    "country": "Ukraine", 
    "iso2": "UA", 
    "admin_name": "Zaporizka Oblast", 
    "capital": "admin", 
    "population": "741717", 
    "population_proper": "710052"
  }, 
  {
    "city": "Lviv", 
    "lat": "49.8425", 
    "lng": "24.0322", 
    "country": "Ukraine", 
    "iso2": "UA", 
    "admin_name": "Lvivska Oblast", 
    "capital": "admin", 
    "population": "724314", 
    "population_proper": "724314"
  }, 
  {
    "city": "Kryvyi Rih", 
    "lat": "47.9086", 
    "lng": "33.3433", 
    "country": "Ukraine", 
    "iso2": "UA", 
    "admin_name": "Dnipropetrovska Oblast", 
    "capital": "minor", 
    "population": "629695", 
    "population_proper": "603237"
  }, 
  {
    "city": "Sevastopol", 
    "lat": "44.6050", 
    "lng": "33.5225", 
    "country": "Ukraine", 
    "iso2": "UA", 
    "admin_name": "Sevastopol, Misto", 
    "capital": "admin", 
    "population": "522057", 
    "population_proper": "522057"
  }, 
  {
    "city": "Mykolaiv", 
    "lat": "46.9750", 
    "lng": "31.9950", 
    "country": "Ukraine", 
    "iso2": "UA", 
    "admin_name": "Mykolaivska Oblast", 
    "capital": "admin", 
    "population": "498748", 
    "population_proper": "470011"
  }, 
  {
    "city": "Mariupol", 
    "lat": "47.0958", 
    "lng": "37.5494", 
    "country": "Ukraine", 
    "iso2": "UA", 
    "admin_name": "Donetska Oblast", 
    "capital": "minor", 
    "population": "449498", 
    "population_proper": "449498"
  }, 
  {
    "city": "Luhansk", 
    "lat": "48.5667", 
    "lng": "39.3333", 
    "country": "Ukraine", 
    "iso2": "UA", 
    "admin_name": "Luhanska Oblast", 
    "capital": "admin", 
    "population": "417990", 
    "population_proper": "417990"
  }, 
  {
    "city": "Vinnytsia", 
    "lat": "49.2333", 
    "lng": "28.4833", 
    "country": "Ukraine", 
    "iso2": "UA", 
    "admin_name": "Vinnytska Oblast", 
    "capital": "admin", 
    "population": "371855", 
    "population_proper": "370601"
  }, 
  {
    "city": "Makiivka", 
    "lat": "48.0556", 
    "lng": "37.9611", 
    "country": "Ukraine", 
    "iso2": "UA", 
    "admin_name": "Donetska Oblast", 
    "capital": "minor", 
    "population": "343158", 
    "population_proper": "343158"
  }, 
  {
    "city": "Simferopol", 
    "lat": "44.9484", 
    "lng": "34.1000", 
    "country": "Ukraine", 
    "iso2": "UA", 
    "admin_name": "Krym, Avtonomna Respublika", 
    "capital": "admin", 
    "population": "341799", 
    "population_proper": "340540"
  }, 
  {
    "city": "Poltava", 
    "lat": "49.5894", 
    "lng": "34.5514", 
    "country": "Ukraine", 
    "iso2": "UA", 
    "admin_name": "Poltavska Oblast", 
    "capital": "admin", 
    "population": "317847", 
    "population_proper": "283402"
  }, 
  {
    "city": "Chernihiv", 
    "lat": "51.4939", 
    "lng": "31.2947", 
    "country": "Ukraine", 
    "iso2": "UA", 
    "admin_name": "Chernihivska Oblast", 
    "capital": "admin", 
    "population": "294522", 
    "population_proper": "286899"
  }, 
  {
    "city": "Kherson", 
    "lat": "46.6425", 
    "lng": "32.6250", 
    "country": "Ukraine", 
    "iso2": "UA", 
    "admin_name": "Khersonska Oblast", 
    "capital": "admin", 
    "population": "291428", 
    "population_proper": "283649"
  }, 
  {
    "city": "Cherkasy", 
    "lat": "49.4444", 
    "lng": "32.0597", 
    "country": "Ukraine", 
    "iso2": "UA", 
    "admin_name": "Cherkaska Oblast", 
    "capital": "admin", 
    "population": "276360", 
    "population_proper": "269836"
  }, 
  {
    "city": "Khmelnytskyi", 
    "lat": "49.4167", 
    "lng": "27.0000", 
    "country": "Ukraine", 
    "iso2": "UA", 
    "admin_name": "Khmelnytska Oblast", 
    "capital": "admin", 
    "population": "274176", 
    "population_proper": "274176"
  }, 
  {
    "city": "Chernivtsi", 
    "lat": "48.3000", 
    "lng": "25.9333", 
    "country": "Ukraine", 
    "iso2": "UA", 
    "admin_name": "Chernivetska Oblast", 
    "capital": "admin", 
    "population": "266550", 
    "population_proper": "265471"
  }, 
  {
    "city": "Sumy", 
    "lat": "50.9167", 
    "lng": "34.7500", 
    "country": "Ukraine", 
    "iso2": "UA", 
    "admin_name": "Sumska Oblast", 
    "capital": "admin", 
    "population": "265758", 
    "population_proper": "265758"
  }, 
  {
    "city": "Zhytomyr", 
    "lat": "50.2500", 
    "lng": "28.6667", 
    "country": "Ukraine", 
    "iso2": "UA", 
    "admin_name": "Zhytomyrska Oblast", 
    "capital": "admin", 
    "population": "264452", 
    "population_proper": "263507"
  }, 
  {
    "city": "Horlivka", 
    "lat": "48.3336", 
    "lng": "38.0925", 
    "country": "Ukraine", 
    "iso2": "UA", 
    "admin_name": "Donetska Oblast", 
    "capital": "minor", 
    "population": "256714", 
    "population_proper": "256714"
  }, 
  {
    "city": "Rivne", 
    "lat": "50.6192", 
    "lng": "26.2519", 
    "country": "Ukraine", 
    "iso2": "UA", 
    "admin_name": "Rivnenska Oblast", 
    "capital": "admin", 
    "population": "246574", 
    "population_proper": "245289"
  }, 
  {
    "city": "Ivano-Frankivsk", 
    "lat": "48.9228", 
    "lng": "24.7106", 
    "country": "Ukraine", 
    "iso2": "UA", 
    "admin_name": "Ivano-Frankivska Oblast", 
    "capital": "admin", 
    "population": "238196", 
    "population_proper": "238196"
  }, 
  {
    "city": "Kamianske", 
    "lat": "48.5167", 
    "lng": "34.6167", 
    "country": "Ukraine", 
    "iso2": "UA", 
    "admin_name": "Dnipropetrovska Oblast", 
    "capital": "minor", 
    "population": "235066", 
    "population_proper": "229794"
  }, 
  {
    "city": "Kropyvnytskyi", 
    "lat": "48.5000", 
    "lng": "32.2667", 
    "country": "Ukraine", 
    "iso2": "UA", 
    "admin_name": "Kirovohradska Oblast", 
    "capital": "admin", 
    "population": "227413", 
    "population_proper": "227413"
  }, 
  {
    "city": "Ternopil", 
    "lat": "49.5667", 
    "lng": "25.6000", 
    "country": "Ukraine", 
    "iso2": "UA", 
    "admin_name": "Ternopilska Oblast", 
    "capital": "admin", 
    "population": "225238", 
    "population_proper": "225238"
  }, 
  {
    "city": "Kremenchuk", 
    "lat": "49.0631", 
    "lng": "33.4039", 
    "country": "Ukraine", 
    "iso2": "UA", 
    "admin_name": "Poltavska Oblast", 
    "capital": "minor", 
    "population": "220174", 
    "population_proper": "220174"
  }, 
  {
    "city": "Lutsk", 
    "lat": "50.7500", 
    "lng": "25.3358", 
    "country": "Ukraine", 
    "iso2": "UA", 
    "admin_name": "Volynska Oblast", 
    "capital": "admin", 
    "population": "217197", 
    "population_proper": "217197"
  }, 
  {
    "city": "Bila Tserkva", 
    "lat": "49.7956", 
    "lng": "30.1167", 
    "country": "Ukraine", 
    "iso2": "UA", 
    "admin_name": "Kyivska Oblast", 
    "capital": "minor", 
    "population": "208944", 
    "population_proper": "208944"
  }, 
  {
    "city": "Kramatorsk", 
    "lat": "48.7392", 
    "lng": "37.5839", 
    "country": "Ukraine", 
    "iso2": "UA", 
    "admin_name": "Donetska Oblast", 
    "capital": "minor", 
    "population": "159445", 
    "population_proper": "147145"
  }, 
  {
    "city": "Melitopol", 
    "lat": "46.8489", 
    "lng": "35.3675", 
    "country": "Ukraine", 
    "iso2": "UA", 
    "admin_name": "Zaporizka Oblast", 
    "capital": "minor", 
    "population": "154992", 
    "population_proper": "154992"
  }, 
  {
    "city": "Sievierodonetsk", 
    "lat": "48.9481", 
    "lng": "38.4933", 
    "country": "Ukraine", 
    "iso2": "UA", 
    "admin_name": "Luhanska Oblast", 
    "capital": "minor", 
    "population": "150000", 
    "population_proper": "150000"
  }, 
  {
    "city": "Kerch", 
    "lat": "45.3619", 
    "lng": "36.4711", 
    "country": "Ukraine", 
    "iso2": "UA", 
    "admin_name": "Krym, Avtonomna Respublika", 
    "capital": "minor", 
    "population": "149566", 
    "population_proper": "149566"
  }, 
  {
    "city": "Drohobych", 
    "lat": "49.3500", 
    "lng": "23.5000", 
    "country": "Ukraine", 
    "iso2": "UA", 
    "admin_name": "Lvivska Oblast", 
    "capital": "minor", 
    "population": "124269", 
    "population_proper": "74610"
  }, 
  {
    "city": "Khrustalnyi", 
    "lat": "48.1214", 
    "lng": "38.9453", 
    "country": "Ukraine", 
    "iso2": "UA", 
    "admin_name": "Luhanska Oblast", 
    "capital": "", 
    "population": "124000", 
    "population_proper": "124000"
  }, 
  {
    "city": "Uzhhorod", 
    "lat": "48.6239", 
    "lng": "22.2950", 
    "country": "Ukraine", 
    "iso2": "UA", 
    "admin_name": "Zakarpatska Oblast", 
    "capital": "admin", 
    "population": "114897", 
    "population_proper": "114897"
  }, 
  {
    "city": "Berdiansk", 
    "lat": "46.7556", 
    "lng": "36.7889", 
    "country": "Ukraine", 
    "iso2": "UA", 
    "admin_name": "Zaporizka Oblast", 
    "capital": "minor", 
    "population": "114205", 
    "population_proper": "107928"
  }, 
  {
    "city": "Sloviansk", 
    "lat": "48.8533", 
    "lng": "37.6059", 
    "country": "Ukraine", 
    "iso2": "UA", 
    "admin_name": "Donetska Oblast", 
    "capital": "", 
    "population": "113196", 
    "population_proper": "113196"
  }, 
  {
    "city": "Nikopol", 
    "lat": "47.5667", 
    "lng": "34.4000", 
    "country": "Ukraine", 
    "iso2": "UA", 
    "admin_name": "Dnipropetrovska Oblast", 
    "capital": "minor", 
    "population": "110669", 
    "population_proper": "107464"
  }, 
  {
    "city": "Brovary", 
    "lat": "50.5111", 
    "lng": "30.7900", 
    "country": "Ukraine", 
    "iso2": "UA", 
    "admin_name": "Kyivska Oblast", 
    "capital": "minor", 
    "population": "109473", 
    "population_proper": "109473"
  }, 
  {
    "city": "Yevpatoriia", 
    "lat": "45.1939", 
    "lng": "33.3681", 
    "country": "Ukraine", 
    "iso2": "UA", 
    "admin_name": "Krym, Avtonomna Respublika", 
    "capital": "minor", 
    "population": "108248", 
    "population_proper": "108248"
  }, 
  {
    "city": "Pavlohrad", 
    "lat": "48.5200", 
    "lng": "35.8700", 
    "country": "Ukraine", 
    "iso2": "UA", 
    "admin_name": "Dnipropetrovska Oblast", 
    "capital": "minor", 
    "population": "106082", 
    "population_proper": "103037"
  }, 
  {
    "city": "Alchevsk", 
    "lat": "48.4778", 
    "lng": "38.7978", 
    "country": "Ukraine", 
    "iso2": "UA", 
    "admin_name": "Luhanska Oblast", 
    "capital": "minor", 
    "population": "105398", 
    "population_proper": "105398"
  }, 
  {
    "city": "Konotop", 
    "lat": "51.2369", 
    "lng": "33.2027", 
    "country": "Ukraine", 
    "iso2": "UA", 
    "admin_name": "Sumska Oblast", 
    "capital": "minor", 
    "population": "103547", 
    "population_proper": "84787"
  }, 
  {
    "city": "Kamianets-Podilskyi", 
    "lat": "48.6806", 
    "lng": "26.5806", 
    "country": "Ukraine", 
    "iso2": "UA", 
    "admin_name": "Khmelnytska Oblast", 
    "capital": "minor", 
    "population": "100462", 
    "population_proper": "100462"
  }, 
  {
    "city": "Lysychansk", 
    "lat": "48.9169", 
    "lng": "38.4306", 
    "country": "Ukraine", 
    "iso2": "UA", 
    "admin_name": "Luhanska Oblast", 
    "capital": "", 
    "population": "96161", 
    "population_proper": "96161"
  }, 
  {
    "city": "Dovzhansk", 
    "lat": "48.0778", 
    "lng": "39.6472", 
    "country": "Ukraine", 
    "iso2": "UA", 
    "admin_name": "Luhanska Oblast", 
    "capital": "minor", 
    "population": "95153", 
    "population_proper": "95153"
  }, 
  {
    "city": "Mukacheve", 
    "lat": "48.4414", 
    "lng": "22.7136", 
    "country": "Ukraine", 
    "iso2": "UA", 
    "admin_name": "Zakarpatska Oblast", 
    "capital": "minor", 
    "population": "86257", 
    "population_proper": "86257"
  }, 
  {
    "city": "Uman", 
    "lat": "48.7500", 
    "lng": "30.2167", 
    "country": "Ukraine", 
    "iso2": "UA", 
    "admin_name": "Cherkaska Oblast", 
    "capital": "minor", 
    "population": "82762", 
    "population_proper": "82154"
  }, 
  {
    "city": "Chervonohrad", 
    "lat": "50.3822", 
    "lng": "24.2275", 
    "country": "Ukraine", 
    "iso2": "UA", 
    "admin_name": "Lvivska Oblast", 
    "capital": "minor", 
    "population": "82395", 
    "population_proper": "82395"
  }, 
  {
    "city": "Yalta", 
    "lat": "44.4994", 
    "lng": "34.1700", 
    "country": "Ukraine", 
    "iso2": "UA", 
    "admin_name": "Krym, Avtonomna Respublika", 
    "capital": "", 
    "population": "79458", 
    "population_proper": "79272"
  }, 
  {
    "city": "Yenakiieve", 
    "lat": "48.2311", 
    "lng": "38.2053", 
    "country": "Ukraine", 
    "iso2": "UA", 
    "admin_name": "Donetska Oblast", 
    "capital": "", 
    "population": "79348", 
    "population_proper": "79348"
  }, 
  {
    "city": "Bakhmut", 
    "lat": "48.5947", 
    "lng": "38.0008", 
    "country": "Ukraine", 
    "iso2": "UA", 
    "admin_name": "Donetska Oblast", 
    "capital": "minor", 
    "population": "75798", 
    "population_proper": "71094"
  }, 
  {
    "city": "Stakhanov", 
    "lat": "48.5681", 
    "lng": "38.6586", 
    "country": "Ukraine", 
    "iso2": "UA", 
    "admin_name": "Luhanska Oblast", 
    "capital": "", 
    "population": "75745", 
    "population_proper": "75745"
  }, 
  {
    "city": "Nizhyn", 
    "lat": "51.0474", 
    "lng": "31.8805", 
    "country": "Ukraine", 
    "iso2": "UA", 
    "admin_name": "Chernihivska Oblast", 
    "capital": "minor", 
    "population": "73283", 
    "population_proper": "66981"
  }, 
  {
    "city": "Kostiantynivka", 
    "lat": "48.5333", 
    "lng": "37.7167", 
    "country": "Ukraine", 
    "iso2": "UA", 
    "admin_name": "Donetska Oblast", 
    "capital": "", 
    "population": "72888", 
    "population_proper": "72888"
  }, 
  {
    "city": "Fedosiia", 
    "lat": "45.0489", 
    "lng": "35.3792", 
    "country": "Ukraine", 
    "iso2": "UA", 
    "admin_name": "Krym, Avtonomna Respublika", 
    "capital": "", 
    "population": "69145", 
    "population_proper": "69145"
  }, 
  {
    "city": "Kovel", 
    "lat": "51.2167", 
    "lng": "24.7167", 
    "country": "Ukraine", 
    "iso2": "UA", 
    "admin_name": "Volynska Oblast", 
    "capital": "minor", 
    "population": "69089", 
    "population_proper": "67991"
  }, 
  {
    "city": "Smila", 
    "lat": "49.2167", 
    "lng": "31.8667", 
    "country": "Ukraine", 
    "iso2": "UA", 
    "admin_name": "Cherkaska Oblast", 
    "capital": "minor", 
    "population": "68536", 
    "population_proper": "21341"
  }, 
  {
    "city": "Korosten", 
    "lat": "50.9500", 
    "lng": "28.6500", 
    "country": "Ukraine", 
    "iso2": "UA", 
    "admin_name": "Zhytomyrska Oblast", 
    "capital": "minor", 
    "population": "63525", 
    "population_proper": "63525"
  }, 
  {
    "city": "Pokrovsk", 
    "lat": "48.2828", 
    "lng": "37.1828", 
    "country": "Ukraine", 
    "iso2": "UA", 
    "admin_name": "Donetska Oblast", 
    "capital": "minor", 
    "population": "63437", 
    "population_proper": "63437"
  }, 
  {
    "city": "Pervomaisk", 
    "lat": "48.0500", 
    "lng": "30.8500", 
    "country": "Ukraine", 
    "iso2": "UA", 
    "admin_name": "Mykolaivska Oblast", 
    "capital": "minor", 
    "population": "63377", 
    "population_proper": "63377"
  }, 
  {
    "city": "Kolomyia", 
    "lat": "48.5167", 
    "lng": "25.0333", 
    "country": "Ukraine", 
    "iso2": "UA", 
    "admin_name": "Ivano-Frankivska Oblast", 
    "capital": "minor", 
    "population": "61269", 
    "population_proper": "61269"
  }, 
  {
    "city": "Rubizhne", 
    "lat": "49.0336", 
    "lng": "38.3722", 
    "country": "Ukraine", 
    "iso2": "UA", 
    "admin_name": "Luhanska Oblast", 
    "capital": "", 
    "population": "59951", 
    "population_proper": "59951"
  }, 
  {
    "city": "Chornomorsk", 
    "lat": "46.3017", 
    "lng": "30.6569", 
    "country": "Ukraine", 
    "iso2": "UA", 
    "admin_name": "Odeska Oblast", 
    "capital": "", 
    "population": "59800", 
    "population_proper": "57983"
  }, 
  {
    "city": "Khartsyzk", 
    "lat": "48.0333", 
    "lng": "38.1500", 
    "country": "Ukraine", 
    "iso2": "UA", 
    "admin_name": "Donetska Oblast", 
    "capital": "", 
    "population": "59763", 
    "population_proper": "59763"
  }, 
  {
    "city": "Druzhkivka", 
    "lat": "48.6203", 
    "lng": "37.5278", 
    "country": "Ukraine", 
    "iso2": "UA", 
    "admin_name": "Donetska Oblast", 
    "capital": "", 
    "population": "59400", 
    "population_proper": "59400"
  }, 
  {
    "city": "Stryi", 
    "lat": "49.2500", 
    "lng": "23.8500", 
    "country": "Ukraine", 
    "iso2": "UA", 
    "admin_name": "Lvivska Oblast", 
    "capital": "minor", 
    "population": "59325", 
    "population_proper": "55100"
  }, 
  {
    "city": "Bilhorod-Dnistrovskyi", 
    "lat": "46.1833", 
    "lng": "30.3500", 
    "country": "Ukraine", 
    "iso2": "UA", 
    "admin_name": "Odeska Oblast", 
    "capital": "minor", 
    "population": "57210", 
    "population_proper": "57210"
  }, 
  {
    "city": "Irpin", 
    "lat": "50.5167", 
    "lng": "30.2500", 
    "country": "Ukraine", 
    "iso2": "UA", 
    "admin_name": "Kyivska Oblast", 
    "capital": "", 
    "population": "56806", 
    "population_proper": "56806"
  }, 
  {
    "city": "Novohrad-Volynskyi", 
    "lat": "50.5833", 
    "lng": "27.6333", 
    "country": "Ukraine", 
    "iso2": "UA", 
    "admin_name": "Zhytomyrska Oblast", 
    "capital": "minor", 
    "population": "56288", 
    "population_proper": "55463"
  }, 
  {
    "city": "Lozova", 
    "lat": "48.8892", 
    "lng": "36.3161", 
    "country": "Ukraine", 
    "iso2": "UA", 
    "admin_name": "Kharkivska Oblast", 
    "capital": "minor", 
    "population": "55827", 
    "population_proper": "54026"
  }, 
  {
    "city": "Antratsyt", 
    "lat": "48.1167", 
    "lng": "39.0833", 
    "country": "Ukraine", 
    "iso2": "UA", 
    "admin_name": "Luhanska Oblast", 
    "capital": "", 
    "population": "54640", 
    "population_proper": "52353"
  }, 
  {
    "city": "Chystiakove", 
    "lat": "48.0219", 
    "lng": "38.6264", 
    "country": "Ukraine", 
    "iso2": "UA", 
    "admin_name": "Donetska Oblast", 
    "capital": "", 
    "population": "53462", 
    "population_proper": "53462"
  }, 
  {
    "city": "Horishni Plavni", 
    "lat": "49.0167", 
    "lng": "33.6667", 
    "country": "Ukraine", 
    "iso2": "UA", 
    "admin_name": "Poltavska Oblast", 
    "capital": "", 
    "population": "52167", 
    "population_proper": "52167"
  }, 
  {
    "city": "Myrnohrad", 
    "lat": "48.2911", 
    "lng": "37.2681", 
    "country": "Ukraine", 
    "iso2": "UA", 
    "admin_name": "Donetska Oblast", 
    "capital": "", 
    "population": "50360", 
    "population_proper": "50360"
  }, 
  {
    "city": "Shakhtarsk", 
    "lat": "48.0333", 
    "lng": "38.4833", 
    "country": "Ukraine", 
    "iso2": "UA", 
    "admin_name": "Donetska Oblast", 
    "capital": "minor", 
    "population": "49482", 
    "population_proper": "49482"
  }, 
  {
    "city": "Okhtyrka", 
    "lat": "50.3074", 
    "lng": "34.9016", 
    "country": "Ukraine", 
    "iso2": "UA", 
    "admin_name": "Sumska Oblast", 
    "capital": "minor", 
    "population": "47971", 
    "population_proper": "47971"
  }, 
  {
    "city": "Brianka", 
    "lat": "48.5133", 
    "lng": "38.6431", 
    "country": "Ukraine", 
    "iso2": "UA", 
    "admin_name": "Luhanska Oblast", 
    "capital": "", 
    "population": "47512", 
    "population_proper": "44987"
  }, 
  {
    "city": "Snizhne", 
    "lat": "48.0167", 
    "lng": "38.7667", 
    "country": "Ukraine", 
    "iso2": "UA", 
    "admin_name": "Donetska Oblast", 
    "capital": "", 
    "population": "47259", 
    "population_proper": "47259"
  }, 
  {
    "city": "Rovenky", 
    "lat": "48.0833", 
    "lng": "39.3667", 
    "country": "Ukraine", 
    "iso2": "UA", 
    "admin_name": "Luhanska Oblast", 
    "capital": "", 
    "population": "46734", 
    "population_proper": "46734"
  }, 
  {
    "city": "Fastiv", 
    "lat": "50.0747", 
    "lng": "29.9181", 
    "country": "Ukraine", 
    "iso2": "UA", 
    "admin_name": "Kyivska Oblast", 
    "capital": "minor", 
    "population": "45907", 
    "population_proper": "45907"
  }, 
  {
    "city": "Lubny", 
    "lat": "50.0186", 
    "lng": "32.9869", 
    "country": "Ukraine", 
    "iso2": "UA", 
    "admin_name": "Poltavska Oblast", 
    "capital": "minor", 
    "population": "45786", 
    "population_proper": "45786"
  }, 
  {
    "city": "Krasnodon", 
    "lat": "48.3000", 
    "lng": "39.7333", 
    "country": "Ukraine", 
    "iso2": "UA", 
    "admin_name": "Luhanska Oblast", 
    "capital": "", 
    "population": "43683", 
    "population_proper": "43683"
  }, 
  {
    "city": "Shepetivka", 
    "lat": "50.1833", 
    "lng": "27.0667", 
    "country": "Ukraine", 
    "iso2": "UA", 
    "admin_name": "Khmelnytska Oblast", 
    "capital": "minor", 
    "population": "41415", 
    "population_proper": "41415"
  }, 
  {
    "city": "Romny", 
    "lat": "50.7428", 
    "lng": "33.4879", 
    "country": "Ukraine", 
    "iso2": "UA", 
    "admin_name": "Sumska Oblast", 
    "capital": "minor", 
    "population": "40316", 
    "population_proper": "40316"
  }, 
  {
    "city": "Myrhorod", 
    "lat": "49.9667", 
    "lng": "33.6000", 
    "country": "Ukraine", 
    "iso2": "UA", 
    "admin_name": "Poltavska Oblast", 
    "capital": "minor", 
    "population": "40160", 
    "population_proper": "40160"
  }, 
  {
    "city": "Podilsk", 
    "lat": "47.7419", 
    "lng": "29.5350", 
    "country": "Ukraine", 
    "iso2": "UA", 
    "admin_name": "Odeska Oblast", 
    "capital": "minor", 
    "population": "40155", 
    "population_proper": "40155"
  }, 
  {
    "city": "Vyshneve", 
    "lat": "50.3869", 
    "lng": "30.3581", 
    "country": "Ukraine", 
    "iso2": "UA", 
    "admin_name": "Kyivska Oblast", 
    "capital": "", 
    "population": "39900", 
    "population_proper": "39900"
  }, 
  {
    "city": "Vasylkiv", 
    "lat": "50.1775", 
    "lng": "30.3217", 
    "country": "Ukraine", 
    "iso2": "UA", 
    "admin_name": "Kyivska Oblast", 
    "capital": "", 
    "population": "37696", 
    "population_proper": "37696"
  }, 
  {
    "city": "Dubno", 
    "lat": "50.3931", 
    "lng": "25.7350", 
    "country": "Ukraine", 
    "iso2": "UA", 
    "admin_name": "Rivnenska Oblast", 
    "capital": "minor", 
    "population": "37545", 
    "population_proper": "37545"
  }, 
  {
    "city": "Boryslav", 
    "lat": "49.2881", 
    "lng": "23.4267", 
    "country": "Ukraine", 
    "iso2": "UA", 
    "admin_name": "Lvivska Oblast", 
    "capital": "", 
    "population": "37093", 
    "population_proper": "37093"
  }, 
  {
    "city": "Holubivske", 
    "lat": "48.6375", 
    "lng": "38.6433", 
    "country": "Ukraine", 
    "iso2": "UA", 
    "admin_name": "Luhanska Oblast", 
    "capital": "", 
    "population": "36388", 
    "population_proper": "36388"
  }, 
  {
    "city": "Boyarka", 
    "lat": "50.3292", 
    "lng": "30.2886", 
    "country": "Ukraine", 
    "iso2": "UA", 
    "admin_name": "Kyivska Oblast", 
    "capital": "", 
    "population": "35411", 
    "population_proper": "35411"
  }, 
  {
    "city": "Yasynuvata", 
    "lat": "48.1167", 
    "lng": "37.8333", 
    "country": "Ukraine", 
    "iso2": "UA", 
    "admin_name": "Donetska Oblast", 
    "capital": "", 
    "population": "35303", 
    "population_proper": "35303"
  }, 
  {
    "city": "Bucha", 
    "lat": "50.5486", 
    "lng": "30.2208", 
    "country": "Ukraine", 
    "iso2": "UA", 
    "admin_name": "Kyivska Oblast", 
    "capital": "minor", 
    "population": "35162", 
    "population_proper": "35162"
  }, 
  {
    "city": "Avdiivka", 
    "lat": "48.1333", 
    "lng": "37.7500", 
    "country": "Ukraine", 
    "iso2": "UA", 
    "admin_name": "Donetska Oblast", 
    "capital": "", 
    "population": "34938", 
    "population_proper": "34938"
  }, 
  {
    "city": "Sambir", 
    "lat": "49.5167", 
    "lng": "23.2000", 
    "country": "Ukraine", 
    "iso2": "UA", 
    "admin_name": "Lvivska Oblast", 
    "capital": "minor", 
    "population": "34444", 
    "population_proper": "34444"
  }, 
  {
    "city": "Toretsk", 
    "lat": "48.3917", 
    "lng": "37.8733", 
    "country": "Ukraine", 
    "iso2": "UA", 
    "admin_name": "Donetska Oblast", 
    "capital": "", 
    "population": "34378", 
    "population_proper": "34378"
  }, 
  {
    "city": "Zhmerynka", 
    "lat": "49.0500", 
    "lng": "28.1000", 
    "country": "Ukraine", 
    "iso2": "UA", 
    "admin_name": "Vinnytska Oblast", 
    "capital": "minor", 
    "population": "34353", 
    "population_proper": "34097"
  }, 
  {
    "city": "Chuhuiv", 
    "lat": "49.8372", 
    "lng": "36.6899", 
    "country": "Ukraine", 
    "iso2": "UA", 
    "admin_name": "Kharkivska Oblast", 
    "capital": "minor", 
    "population": "33144", 
    "population_proper": "33144"
  }, 
  {
    "city": "Mohyliv-Podilskyi", 
    "lat": "48.4500", 
    "lng": "27.7833", 
    "country": "Ukraine", 
    "iso2": "UA", 
    "admin_name": "Vinnytska Oblast", 
    "capital": "minor", 
    "population": "30589", 
    "population_proper": "30186"
  }, 
  {
    "city": "Truskavets", 
    "lat": "49.2806", 
    "lng": "23.5050", 
    "country": "Ukraine", 
    "iso2": "UA", 
    "admin_name": "Lvivska Oblast", 
    "capital": "", 
    "population": "28867", 
    "population_proper": "28287"
  }, 
  {
    "city": "Khmilnyk", 
    "lat": "49.5569", 
    "lng": "27.9572", 
    "country": "Ukraine", 
    "iso2": "UA", 
    "admin_name": "Vinnytska Oblast", 
    "capital": "minor", 
    "population": "27941", 
    "population_proper": "27941"
  }, 
  {
    "city": "Kupiansk", 
    "lat": "49.7064", 
    "lng": "37.6167", 
    "country": "Ukraine", 
    "iso2": "UA", 
    "admin_name": "Kharkivska Oblast", 
    "capital": "minor", 
    "population": "27169", 
    "population_proper": "27169"
  }, 
  {
    "city": "Pereyaslav-Khmel’nyts’kyy", 
    "lat": "50.0650", 
    "lng": "31.4450", 
    "country": "Ukraine", 
    "iso2": "UA", 
    "admin_name": "Kyivska Oblast", 
    "capital": "", 
    "population": "27088", 
    "population_proper": "27088"
  }, 
  {
    "city": "Sofiyivs’ka Borshchahivka", 
    "lat": "50.4114", 
    "lng": "30.3692", 
    "country": "Ukraine", 
    "iso2": "UA", 
    "admin_name": "Kyivska Oblast", 
    "capital": "", 
    "population": "26571", 
    "population_proper": "26571"
  }, 
  {
    "city": "Perevalsk", 
    "lat": "48.4333", 
    "lng": "38.8167", 
    "country": "Ukraine", 
    "iso2": "UA", 
    "admin_name": "Luhanska Oblast", 
    "capital": "minor", 
    "population": "26132", 
    "population_proper": "26132"
  }, 
  {
    "city": "Vynohradiv", 
    "lat": "48.1397", 
    "lng": "23.0331", 
    "country": "Ukraine", 
    "iso2": "UA", 
    "admin_name": "Zakarpatska Oblast", 
    "capital": "minor", 
    "population": "25403", 
    "population_proper": "25403"
  }, 
  {
    "city": "Saky", 
    "lat": "45.1336", 
    "lng": "33.5772", 
    "country": "Ukraine", 
    "iso2": "UA", 
    "admin_name": "Krym, Avtonomna Respublika", 
    "capital": "minor", 
    "population": "24282", 
    "population_proper": "24282"
  }, 
  {
    "city": "Selydove", 
    "lat": "48.1500", 
    "lng": "37.3000", 
    "country": "Ukraine", 
    "iso2": "UA", 
    "admin_name": "Donetska Oblast", 
    "capital": "", 
    "population": "23793", 
    "population_proper": "23793"
  }, 
  {
    "city": "Pesochin", 
    "lat": "49.9539", 
    "lng": "36.1092", 
    "country": "Ukraine", 
    "iso2": "UA", 
    "admin_name": "Kharkivska Oblast", 
    "capital": "", 
    "population": "23414", 
    "population_proper": "23414"
  }, 
  {
    "city": "Molodohvardiisk", 
    "lat": "48.3444", 
    "lng": "39.6583", 
    "country": "Ukraine", 
    "iso2": "UA", 
    "admin_name": "Luhanska Oblast", 
    "capital": "", 
    "population": "22937", 
    "population_proper": "22937"
  }, 
  {
    "city": "Merefa", 
    "lat": "49.8197", 
    "lng": "36.0686", 
    "country": "Ukraine", 
    "iso2": "UA", 
    "admin_name": "Kharkivska Oblast", 
    "capital": "", 
    "population": "21794", 
    "population_proper": "21421"
  }, 
  {
    "city": "Bilohorodka", 
    "lat": "50.4000", 
    "lng": "30.2167", 
    "country": "Ukraine", 
    "iso2": "UA", 
    "admin_name": "Kyivska Oblast", 
    "capital": "", 
    "population": "21367", 
    "population_proper": "21367"
  }, 
  {
    "city": "Sukhodilsk", 
    "lat": "48.3500", 
    "lng": "39.7167", 
    "country": "Ukraine", 
    "iso2": "UA", 
    "admin_name": "Luhanska Oblast", 
    "capital": "", 
    "population": "21324", 
    "population_proper": "21324"
  }, 
  {
    "city": "Liubotyn", 
    "lat": "49.9489", 
    "lng": "35.9306", 
    "country": "Ukraine", 
    "iso2": "UA", 
    "admin_name": "Kharkivska Oblast", 
    "capital": "", 
    "population": "20887", 
    "population_proper": "20887"
  }, 
  {
    "city": "Kotsyubyns’ke", 
    "lat": "50.4883", 
    "lng": "30.3331", 
    "country": "Ukraine", 
    "iso2": "UA", 
    "admin_name": "Kyiv, Misto", 
    "capital": "", 
    "population": "16337", 
    "population_proper": "16337"
  }, 
  {
    "city": "Hostomel", 
    "lat": "50.5893", 
    "lng": "30.2584", 
    "country": "Ukraine", 
    "iso2": "UA", 
    "admin_name": "Kyivska Oblast", 
    "capital": "", 
    "population": "16190", 
    "population_proper": "16190"
  }, 
  {
    "city": "Taromske", 
    "lat": "48.4619", 
    "lng": "34.7829", 
    "country": "Ukraine", 
    "iso2": "UA", 
    "admin_name": "Dnipropetrovska Oblast", 
    "capital": "", 
    "population": "15838", 
    "population_proper": "15838"
  }, 
  {
    "city": "Vynnyky", 
    "lat": "49.8156", 
    "lng": "24.1297", 
    "country": "Ukraine", 
    "iso2": "UA", 
    "admin_name": "Lvivska Oblast", 
    "capital": "", 
    "population": "15723", 
    "population_proper": "15723"
  }, 
  {
    "city": "Chervonopartyzansk", 
    "lat": "48.0833", 
    "lng": "39.7833", 
    "country": "Ukraine", 
    "iso2": "UA", 
    "admin_name": "Luhanska Oblast", 
    "capital": "", 
    "population": "15218", 
    "population_proper": "15218"
  }, 
  {
    "city": "Nyzhnia Krynka", 
    "lat": "48.1144", 
    "lng": "38.1606", 
    "country": "Ukraine", 
    "iso2": "UA", 
    "admin_name": "Donetska Oblast", 
    "capital": "", 
    "population": "13927", 
    "population_proper": "13927"
  }, 
  {
    "city": "Petrovske", 
    "lat": "48.2833", 
    "lng": "38.8833", 
    "country": "Ukraine", 
    "iso2": "UA", 
    "admin_name": "Luhanska Oblast", 
    "capital": "", 
    "population": "13500", 
    "population_proper": "13500"
  }, 
  {
    "city": "Antonivka", 
    "lat": "46.6791", 
    "lng": "32.7228", 
    "country": "Ukraine", 
    "iso2": "UA", 
    "admin_name": "Khersonska Oblast", 
    "capital": "", 
    "population": "12812", 
    "population_proper": "12812"
  }, 
  {
    "city": "Zhdanivka", 
    "lat": "48.1500", 
    "lng": "38.2500", 
    "country": "Ukraine", 
    "iso2": "UA", 
    "admin_name": "Donetska Oblast", 
    "capital": "", 
    "population": "11913", 
    "population_proper": "11913"
  }, 
  {
    "city": "Vakhrusheve", 
    "lat": "48.1667", 
    "lng": "38.8333", 
    "country": "Ukraine", 
    "iso2": "UA", 
    "admin_name": "Luhanska Oblast", 
    "capital": "", 
    "population": "11421", 
    "population_proper": "11421"
  }, 
  {
    "city": "Hirnyk", 
    "lat": "48.0500", 
    "lng": "37.3667", 
    "country": "Ukraine", 
    "iso2": "UA", 
    "admin_name": "Donetska Oblast", 
    "capital": "", 
    "population": "11378", 
    "population_proper": "11378"
  }, 
  {
    "city": "Sartana", 
    "lat": "47.1708", 
    "lng": "37.6954", 
    "country": "Ukraine", 
    "iso2": "UA", 
    "admin_name": "Donetska Oblast", 
    "capital": "", 
    "population": "10350", 
    "population_proper": "10350"
  }, 
  {
    "city": "Haspra", 
    "lat": "44.4361", 
    "lng": "34.1106", 
    "country": "Ukraine", 
    "iso2": "UA", 
    "admin_name": "Krym, Avtonomna Respublika", 
    "capital": "", 
    "population": "10310", 
    "population_proper": "10310"
  }, 
  {
    "city": "Novgorodskoye", 
    "lat": "48.3328", 
    "lng": "37.8369", 
    "country": "Ukraine", 
    "iso2": "UA", 
    "admin_name": "Donetska Oblast", 
    "capital": "", 
    "population": "10227", 
    "population_proper": "9917"
  }, 
  {
    "city": "Inkerman", 
    "lat": "44.6142", 
    "lng": "33.6083", 
    "country": "Ukraine", 
    "iso2": "UA", 
    "admin_name": "Sevastopol, Misto", 
    "capital": "", 
    "population": "10196", 
    "population_proper": "10196"
  }, 
  {
    "city": "Korolevo", 
    "lat": "48.1500", 
    "lng": "23.1333", 
    "country": "Ukraine", 
    "iso2": "UA", 
    "admin_name": "Zakarpatska Oblast", 
    "capital": "", 
    "population": "10165", 
    "population_proper": "10165"
  }, 
  {
    "city": "Sniatyn", 
    "lat": "48.4500", 
    "lng": "25.5667", 
    "country": "Ukraine", 
    "iso2": "UA", 
    "admin_name": "Ivano-Frankivska Oblast", 
    "capital": "minor", 
    "population": "9942", 
    "population_proper": "9942"
  }, 
  {
    "city": "Sofiivka", 
    "lat": "48.2683", 
    "lng": "38.1847", 
    "country": "Ukraine", 
    "iso2": "UA", 
    "admin_name": "Donetska Oblast", 
    "capital": "", 
    "population": "9597", 
    "population_proper": "9597"
  }, 
  {
    "city": "Bezliudivka", 
    "lat": "49.8694", 
    "lng": "36.2719", 
    "country": "Ukraine", 
    "iso2": "UA", 
    "admin_name": "Kharkivska Oblast", 
    "capital": "", 
    "population": "9436", 
    "population_proper": "9436"
  }, 
  {
    "city": "Bilenke", 
    "lat": "48.7664", 
    "lng": "37.6314", 
    "country": "Ukraine", 
    "iso2": "UA", 
    "admin_name": "Donetska Oblast", 
    "capital": "", 
    "population": "9136", 
    "population_proper": "9136"
  }, 
  {
    "city": "Hurzuf", 
    "lat": "44.5528", 
    "lng": "34.2875", 
    "country": "Ukraine", 
    "iso2": "UA", 
    "admin_name": "Krym, Avtonomna Respublika", 
    "capital": "", 
    "population": "9117", 
    "population_proper": "9117"
  }, 
  {
    "city": "Horodenka", 
    "lat": "48.6675", 
    "lng": "25.5003", 
    "country": "Ukraine", 
    "iso2": "UA", 
    "admin_name": "Ivano-Frankivska Oblast", 
    "capital": "minor", 
    "population": "9113", 
    "population_proper": "9113"
  }, 
  {
    "city": "Masandra", 
    "lat": "44.5167", 
    "lng": "34.1833", 
    "country": "Ukraine", 
    "iso2": "UA", 
    "admin_name": "Krym, Avtonomna Respublika", 
    "capital": "", 
    "population": "8571", 
    "population_proper": "8571"
  }, 
  {
    "city": "Yasnohirka", 
    "lat": "48.7725", 
    "lng": "37.5506", 
    "country": "Ukraine", 
    "iso2": "UA", 
    "admin_name": "Donetska Oblast", 
    "capital": "", 
    "population": "8034", 
    "population_proper": "8034"
  }, 
  {
    "city": "Pochaiv", 
    "lat": "50.0079", 
    "lng": "25.4977", 
    "country": "Ukraine", 
    "iso2": "UA", 
    "admin_name": "Ternopilska Oblast", 
    "capital": "", 
    "population": "7691", 
    "population_proper": "7691"
  }, 
  {
    "city": "Vuhlehirsk", 
    "lat": "48.3128", 
    "lng": "38.2605", 
    "country": "Ukraine", 
    "iso2": "UA", 
    "admin_name": "Donetska Oblast", 
    "capital": "", 
    "population": "7372", 
    "population_proper": "7372"
  }, 
  {
    "city": "Zorynsk", 
    "lat": "48.4167", 
    "lng": "38.6167", 
    "country": "Ukraine", 
    "iso2": "UA", 
    "admin_name": "Luhanska Oblast", 
    "capital": "", 
    "population": "7173", 
    "population_proper": "7173"
  }, 
  {
    "city": "Komyshany", 
    "lat": "46.6400", 
    "lng": "32.5100", 
    "country": "Ukraine", 
    "iso2": "UA", 
    "admin_name": "Khersonska Oblast", 
    "capital": "", 
    "population": "6941", 
    "population_proper": "6941"
  }, 
  {
    "city": "Piskivka", 
    "lat": "50.7078", 
    "lng": "29.5950", 
    "country": "Ukraine", 
    "iso2": "UA", 
    "admin_name": "Kyivska Oblast", 
    "capital": "minor", 
    "population": "6896", 
    "population_proper": "6896"
  }, 
  {
    "city": "Karnaukhivka", 
    "lat": "48.4698", 
    "lng": "34.7376", 
    "country": "Ukraine", 
    "iso2": "UA", 
    "admin_name": "Dnipropetrovska Oblast", 
    "capital": "", 
    "population": "6631", 
    "population_proper": "6631"
  }, 
  {
    "city": "Rozkishne", 
    "lat": "48.4922", 
    "lng": "39.2719", 
    "country": "Ukraine", 
    "iso2": "UA", 
    "admin_name": "Luhanska Oblast", 
    "capital": "", 
    "population": "6482", 
    "population_proper": "6482"
  }, 
  {
    "city": "Vorzel", 
    "lat": "50.5464", 
    "lng": "30.1564", 
    "country": "Ukraine", 
    "iso2": "UA", 
    "admin_name": "Kyivska Oblast", 
    "capital": "", 
    "population": "6441", 
    "population_proper": "6441"
  }, 
  {
    "city": "Halych", 
    "lat": "49.1128", 
    "lng": "24.7217", 
    "country": "Ukraine", 
    "iso2": "UA", 
    "admin_name": "Ivano-Frankivska Oblast", 
    "capital": "minor", 
    "population": "6196", 
    "population_proper": "6196"
  }, 
  {
    "city": "Petropavlivs’ka Borshchahivka", 
    "lat": "50.4378", 
    "lng": "30.3439", 
    "country": "Ukraine", 
    "iso2": "UA", 
    "admin_name": "Kyivska Oblast", 
    "capital": "", 
    "population": "6125", 
    "population_proper": "6125"
  }, 
  {
    "city": "Balabyne", 
    "lat": "47.7350", 
    "lng": "35.2142", 
    "country": "Ukraine", 
    "iso2": "UA", 
    "admin_name": "Zaporizka Oblast", 
    "capital": "", 
    "population": "6010", 
    "population_proper": "6010"
  }, 
  {
    "city": "Zelenivka", 
    "lat": "46.7180", 
    "lng": "32.6484", 
    "country": "Ukraine", 
    "iso2": "UA", 
    "admin_name": "Khersonska Oblast", 
    "capital": "", 
    "population": "5775", 
    "population_proper": "5775"
  }, 
  {
    "city": "Chornukhyne", 
    "lat": "48.3264", 
    "lng": "38.5156", 
    "country": "Ukraine", 
    "iso2": "UA", 
    "admin_name": "Luhanska Oblast", 
    "capital": "", 
    "population": "5725", 
    "population_proper": "5725"
  }, 
  {
    "city": "Koreiz", 
    "lat": "44.4331", 
    "lng": "34.0872", 
    "country": "Ukraine", 
    "iso2": "UA", 
    "admin_name": "Krym, Avtonomna Respublika", 
    "capital": "", 
    "population": "5455", 
    "population_proper": "5455"
  }, 
  {
    "city": "Bryukhovychi", 
    "lat": "49.9000", 
    "lng": "23.9436", 
    "country": "Ukraine", 
    "iso2": "UA", 
    "admin_name": "Lvivska Oblast", 
    "capital": "", 
    "population": "5400", 
    "population_proper": "5400"
  }, 
  {
    "city": "Horenka", 
    "lat": "50.5569", 
    "lng": "30.3175", 
    "country": "Ukraine", 
    "iso2": "UA", 
    "admin_name": "Kyivska Oblast", 
    "capital": "", 
    "population": "5358", 
    "population_proper": "5358"
  }, 
  {
    "city": "Zalizne", 
    "lat": "48.3750", 
    "lng": "37.8733", 
    "country": "Ukraine", 
    "iso2": "UA", 
    "admin_name": "Donetska Oblast", 
    "capital": "", 
    "population": "4928", 
    "population_proper": "4928"
  }, 
  {
    "city": "Khotiv", 
    "lat": "50.3333", 
    "lng": "30.4664", 
    "country": "Ukraine", 
    "iso2": "UA", 
    "admin_name": "Kyivska Oblast", 
    "capital": "", 
    "population": "4737", 
    "population_proper": "4737"
  }, 
  {
    "city": "Chabany", 
    "lat": "50.3400", 
    "lng": "30.4228", 
    "country": "Ukraine", 
    "iso2": "UA", 
    "admin_name": "Kyivska Oblast", 
    "capital": "", 
    "population": "4641", 
    "population_proper": "4641"
  }, 
  {
    "city": "Novooleksandrivka", 
    "lat": "48.3454", 
    "lng": "34.9969", 
    "country": "Ukraine", 
    "iso2": "UA", 
    "admin_name": "Dnipropetrovska Oblast", 
    "capital": "", 
    "population": "4502", 
    "population_proper": "4502"
  }, 
  {
    "city": "Almazna", 
    "lat": "48.5167", 
    "lng": "38.5833", 
    "country": "Ukraine", 
    "iso2": "UA", 
    "admin_name": "Luhanska Oblast", 
    "capital": "", 
    "population": "4301", 
    "population_proper": "4301"
  }, 
  {
    "city": "Shabelkivka", 
    "lat": "48.7608", 
    "lng": "37.4881", 
    "country": "Ukraine", 
    "iso2": "UA", 
    "admin_name": "Donetska Oblast", 
    "capital": "", 
    "population": "4267", 
    "population_proper": "4267"
  }, 
  {
    "city": "Obroshino", 
    "lat": "49.7853", 
    "lng": "23.8686", 
    "country": "Ukraine", 
    "iso2": "UA", 
    "admin_name": "Lvivska Oblast", 
    "capital": "", 
    "population": "4186", 
    "population_proper": "4186"
  }, 
  {
    "city": "Novopillia", 
    "lat": "47.9539", 
    "lng": "33.5278", 
    "country": "Ukraine", 
    "iso2": "UA", 
    "admin_name": "Dnipropetrovska Oblast", 
    "capital": "", 
    "population": "4037", 
    "population_proper": "4037"
  }, 
  {
    "city": "Simeiz", 
    "lat": "44.4053", 
    "lng": "34.0044", 
    "country": "Ukraine", 
    "iso2": "UA", 
    "admin_name": "Krym, Avtonomna Respublika", 
    "capital": "", 
    "population": "3901", 
    "population_proper": "3901"
  }, 
  {
    "city": "Novosilky", 
    "lat": "50.3544", 
    "lng": "30.4544", 
    "country": "Ukraine", 
    "iso2": "UA", 
    "admin_name": "Kyiv, Misto", 
    "capital": "", 
    "population": "3761", 
    "population_proper": "3761"
  }, 
  {
    "city": "Duliby", 
    "lat": "49.2306", 
    "lng": "23.8167", 
    "country": "Ukraine", 
    "iso2": "UA", 
    "admin_name": "Lvivska Oblast", 
    "capital": "", 
    "population": "3671", 
    "population_proper": "3671"
  }, 
  {
    "city": "Kryukivshchyna", 
    "lat": "50.3683", 
    "lng": "30.3681", 
    "country": "Ukraine", 
    "iso2": "UA", 
    "admin_name": "Kyivska Oblast", 
    "capital": "", 
    "population": "3509", 
    "population_proper": "3509"
  }, 
  {
    "city": "Rohan", 
    "lat": "49.9044", 
    "lng": "36.4889", 
    "country": "Ukraine", 
    "iso2": "UA", 
    "admin_name": "Kharkivska Oblast", 
    "capital": "", 
    "population": "3449", 
    "population_proper": "3449"
  }, 
  {
    "city": "Mykhaylivka-Rubezhivka", 
    "lat": "50.5003", 
    "lng": "30.1458", 
    "country": "Ukraine", 
    "iso2": "UA", 
    "admin_name": "Kyivska Oblast", 
    "capital": "", 
    "population": "3430", 
    "population_proper": "3430"
  }, 
  {
    "city": "Valianivske", 
    "lat": "48.0767", 
    "lng": "39.5611", 
    "country": "Ukraine", 
    "iso2": "UA", 
    "admin_name": "Luhanska Oblast", 
    "capital": "", 
    "population": "3324", 
    "population_proper": "3324"
  }, 
  {
    "city": "Malokaterynivka", 
    "lat": "47.6570", 
    "lng": "35.2591", 
    "country": "Ukraine", 
    "iso2": "UA", 
    "admin_name": "Zaporizka Oblast", 
    "capital": "", 
    "population": "3320", 
    "population_proper": "3320"
  }, 
  {
    "city": "Vylok", 
    "lat": "48.1119", 
    "lng": "22.8379", 
    "country": "Ukraine", 
    "iso2": "UA", 
    "admin_name": "Zakarpatska Oblast", 
    "capital": "", 
    "population": "3201", 
    "population_proper": "3201"
  }, 
  {
    "city": "Kulynychi", 
    "lat": "49.9800", 
    "lng": "36.3833", 
    "country": "Ukraine", 
    "iso2": "UA", 
    "admin_name": "Kharkivska Oblast", 
    "capital": "", 
    "population": "2985", 
    "population_proper": "2985"
  }, 
  {
    "city": "Sadky", 
    "lat": "49.0090", 
    "lng": "33.4602", 
    "country": "Ukraine", 
    "iso2": "UA", 
    "admin_name": "Poltavska Oblast", 
    "capital": "", 
    "population": "2939", 
    "population_proper": "2939"
  }, 
  {
    "city": "Pervomaiskyi", 
    "lat": "47.9736", 
    "lng": "38.7875", 
    "country": "Ukraine", 
    "iso2": "UA", 
    "admin_name": "Donetska Oblast", 
    "capital": "", 
    "population": "2837", 
    "population_proper": "2837"
  }, 
  {
    "city": "Brytivka", 
    "lat": "46.1722", 
    "lng": "30.2833", 
    "country": "Ukraine", 
    "iso2": "UA", 
    "admin_name": "Odeska Oblast", 
    "capital": "", 
    "population": "2818", 
    "population_proper": "2818"
  }, 
  {
    "city": "Blyzhnie", 
    "lat": "45.0569", 
    "lng": "35.3306", 
    "country": "Ukraine", 
    "iso2": "UA", 
    "admin_name": "Krym, Avtonomna Respublika", 
    "capital": "", 
    "population": "2779", 
    "population_proper": "2779"
  }, 
  {
    "city": "Lyubymivka", 
    "lat": "48.3721", 
    "lng": "35.1772", 
    "country": "Ukraine", 
    "iso2": "UA", 
    "admin_name": "Dnipropetrovska Oblast", 
    "capital": "", 
    "population": "2610", 
    "population_proper": "2610"
  }, 
  {
    "city": "Mala Rohan", 
    "lat": "49.9379", 
    "lng": "36.4874", 
    "country": "Ukraine", 
    "iso2": "UA", 
    "admin_name": "Kharkivska Oblast", 
    "capital": "", 
    "population": "2603", 
    "population_proper": "2603"
  }, 
  {
    "city": "Kaihador", 
    "lat": "44.9633", 
    "lng": "35.3553", 
    "country": "Ukraine", 
    "iso2": "UA", 
    "admin_name": "Krym, Avtonomna Respublika", 
    "capital": "", 
    "population": "2572", 
    "population_proper": "2572"
  }, 
  {
    "city": "Nikita", 
    "lat": "44.5111", 
    "lng": "34.2353", 
    "country": "Ukraine", 
    "iso2": "UA", 
    "admin_name": "Krym, Avtonomna Respublika", 
    "capital": "", 
    "population": "2466", 
    "population_proper": "2466"
  }, 
  {
    "city": "Tereshky", 
    "lat": "49.5471", 
    "lng": "34.6227", 
    "country": "Ukraine", 
    "iso2": "UA", 
    "admin_name": "Poltavska Oblast", 
    "capital": "", 
    "population": "2450", 
    "population_proper": "2450"
  }, 
  {
    "city": "Zarichany", 
    "lat": "50.2300", 
    "lng": "28.6500", 
    "country": "Ukraine", 
    "iso2": "UA", 
    "admin_name": "Zhytomyrska Oblast", 
    "capital": "", 
    "population": "2439", 
    "population_proper": "2439"
  }, 
  {
    "city": "Aviatorske", 
    "lat": "48.3664", 
    "lng": "35.0830", 
    "country": "Ukraine", 
    "iso2": "UA", 
    "admin_name": "Dnipropetrovska Oblast", 
    "capital": "", 
    "population": "2438", 
    "population_proper": "2438"
  }, 
  {
    "city": "Mykhailivka", 
    "lat": "48.4964", 
    "lng": "38.9025", 
    "country": "Ukraine", 
    "iso2": "UA", 
    "admin_name": "Luhanska Oblast", 
    "capital": "", 
    "population": "2373", 
    "population_proper": "2373"
  }, 
  {
    "city": "Verkhnosadove", 
    "lat": "44.6889", 
    "lng": "33.7056", 
    "country": "Ukraine", 
    "iso2": "UA", 
    "admin_name": "Sevastopol, Misto", 
    "capital": "", 
    "population": "2331", 
    "population_proper": "2331"
  }, 
  {
    "city": "Aeroflotskyi", 
    "lat": "45.0194", 
    "lng": "34.0000", 
    "country": "Ukraine", 
    "iso2": "UA", 
    "admin_name": "Krym, Avtonomna Respublika", 
    "capital": "", 
    "population": "2325", 
    "population_proper": "2325"
  }, 
  {
    "city": "Chornotysiv", 
    "lat": "48.0783", 
    "lng": "23.0536", 
    "country": "Ukraine", 
    "iso2": "UA", 
    "admin_name": "Zakarpatska Oblast", 
    "capital": "", 
    "population": "2232", 
    "population_proper": "2232"
  }, 
  {
    "city": "Borki", 
    "lat": "49.9133", 
    "lng": "23.9178", 
    "country": "Ukraine", 
    "iso2": "UA", 
    "admin_name": "Lvivska Oblast", 
    "capital": "", 
    "population": "2203", 
    "population_proper": "2203"
  }, 
  {
    "city": "Piilo", 
    "lat": "49.0028", 
    "lng": "24.3036", 
    "country": "Ukraine", 
    "iso2": "UA", 
    "admin_name": "Ivano-Frankivska Oblast", 
    "capital": "", 
    "population": "2150", 
    "population_proper": "2150"
  }, 
  {
    "city": "Yablunytsia", 
    "lat": "48.3278", 
    "lng": "24.4944", 
    "country": "Ukraine", 
    "iso2": "UA", 
    "admin_name": "Ivano-Frankivska Oblast", 
    "capital": "", 
    "population": "1986", 
    "population_proper": "1986"
  }, 
  {
    "city": "Dobrovlyany", 
    "lat": "48.6641", 
    "lng": "25.7540", 
    "country": "Ukraine", 
    "iso2": "UA", 
    "admin_name": "Ternopilska Oblast", 
    "capital": "", 
    "population": "1980", 
    "population_proper": "1980"
  }, 
  {
    "city": "Bilshivtsi", 
    "lat": "49.1856", 
    "lng": "24.7464", 
    "country": "Ukraine", 
    "iso2": "UA", 
    "admin_name": "Ivano-Frankivska Oblast", 
    "capital": "", 
    "population": "1938", 
    "population_proper": "1938"
  }, 
  {
    "city": "Ruski Tyshky", 
    "lat": "50.1371", 
    "lng": "36.4174", 
    "country": "Ukraine", 
    "iso2": "UA", 
    "admin_name": "Kharkivska Oblast", 
    "capital": "", 
    "population": "1908", 
    "population_proper": "1908"
  }, 
  {
    "city": "Shcherbani", 
    "lat": "49.5334", 
    "lng": "34.5385", 
    "country": "Ukraine", 
    "iso2": "UA", 
    "admin_name": "Poltavska Oblast", 
    "capital": "", 
    "population": "1864", 
    "population_proper": "1864"
  }, 
  {
    "city": "Stari Kodaky", 
    "lat": "48.3768", 
    "lng": "35.1240", 
    "country": "Ukraine", 
    "iso2": "UA", 
    "admin_name": "Dnipropetrovska Oblast", 
    "capital": "", 
    "population": "1619", 
    "population_proper": "1619"
  }, 
  {
    "city": "Berezivka", 
    "lat": "49.9058", 
    "lng": "36.0642", 
    "country": "Ukraine", 
    "iso2": "UA", 
    "admin_name": "Kharkivska Oblast", 
    "capital": "", 
    "population": "1584", 
    "population_proper": "1584"
  }, 
  {
    "city": "Nasypne", 
    "lat": "45.0458", 
    "lng": "35.2958", 
    "country": "Ukraine", 
    "iso2": "UA", 
    "admin_name": "Krym, Avtonomna Respublika", 
    "capital": "", 
    "population": "1581", 
    "population_proper": "1581"
  }, 
  {
    "city": "Lisnyky", 
    "lat": "50.3039", 
    "lng": "30.5158", 
    "country": "Ukraine", 
    "iso2": "UA", 
    "admin_name": "Kyivska Oblast", 
    "capital": "", 
    "population": "1513", 
    "population_proper": "1513"
  }, 
  {
    "city": "Andriivka", 
    "lat": "44.8161", 
    "lng": "33.5635", 
    "country": "Ukraine", 
    "iso2": "UA", 
    "admin_name": "Sevastopol, Misto", 
    "capital": "", 
    "population": "1498", 
    "population_proper": "1498"
  }, 
  {
    "city": "Iverske", 
    "lat": "48.6367", 
    "lng": "36.9608", 
    "country": "Ukraine", 
    "iso2": "UA", 
    "admin_name": "Donetska Oblast", 
    "capital": "", 
    "population": "1419", 
    "population_proper": "1419"
  }, 
  {
    "city": "Chukaluvka", 
    "lat": "48.8681", 
    "lng": "24.6897", 
    "country": "Ukraine", 
    "iso2": "UA", 
    "admin_name": "Ivano-Frankivska Oblast", 
    "capital": "", 
    "population": "1407", 
    "population_proper": "1407"
  }, 
  {
    "city": "Pokrovske", 
    "lat": "47.0503", 
    "lng": "37.4658", 
    "country": "Ukraine", 
    "iso2": "UA", 
    "admin_name": "Donetska Oblast", 
    "capital": "", 
    "population": "1383", 
    "population_proper": "1383"
  }, 
  {
    "city": "Solomonovo", 
    "lat": "48.4306", 
    "lng": "22.1639", 
    "country": "Ukraine", 
    "iso2": "UA", 
    "admin_name": "Zakarpatska Oblast", 
    "capital": "", 
    "population": "1342", 
    "population_proper": "1342"
  }, 
  {
    "city": "Lavky", 
    "lat": "48.4800", 
    "lng": "22.6944", 
    "country": "Ukraine", 
    "iso2": "UA", 
    "admin_name": "Zakarpatska Oblast", 
    "capital": "", 
    "population": "1299", 
    "population_proper": "1299"
  }, 
  {
    "city": "Slobozhanske", 
    "lat": "50.1928", 
    "lng": "36.4136", 
    "country": "Ukraine", 
    "iso2": "UA", 
    "admin_name": "Kharkivska Oblast", 
    "capital": "", 
    "population": "1173", 
    "population_proper": "1173"
  }, 
  {
    "city": "Shevchenkivske", 
    "lat": "48.0985", 
    "lng": "33.5950", 
    "country": "Ukraine", 
    "iso2": "UA", 
    "admin_name": "Dnipropetrovska Oblast", 
    "capital": "", 
    "population": "1140", 
    "population_proper": "1140"
  }, 
  {
    "city": "Krasnokamianka", 
    "lat": "44.5625", 
    "lng": "34.2931", 
    "country": "Ukraine", 
    "iso2": "UA", 
    "admin_name": "Krym, Avtonomna Respublika", 
    "capital": "", 
    "population": "1074", 
    "population_proper": "1074"
  }, 
  {
    "city": "Bairachky", 
    "lat": "48.3883", 
    "lng": "38.5992", 
    "country": "Ukraine", 
    "iso2": "UA", 
    "admin_name": "Luhanska Oblast", 
    "capital": "", 
    "population": "1065", 
    "population_proper": "1065"
  }, 
  {
    "city": "Marianivka", 
    "lat": "48.3118", 
    "lng": "33.5294", 
    "country": "Ukraine", 
    "iso2": "UA", 
    "admin_name": "Dnipropetrovska Oblast", 
    "capital": "", 
    "population": "1016", 
    "population_proper": "1016"
  }, 
  {
    "city": "Volodymyr-Volynskyi", 
    "lat": "50.8525", 
    "lng": "24.3236", 
    "country": "Ukraine", 
    "iso2": "UA", 
    "admin_name": "Volynska Oblast", 
    "capital": "minor", 
    "population": "", 
    "population_proper": ""
  }
]